[
    {
        "Agency Name": "Georgia Bureau of Investigation: Headquarters",
        "County": " County",
        "Latitude": 33.770661,
        "Longitude": -84.226343,
        "2017 Income per Capita": null,
        "2018 Income per Capita": null,
        "2019 Income per Capita": null,
        "2020 Income per Capita": null
    },
    {
        "Agency Name": "Georgia Department of Public Safety",
        "County": " County",
        "Latitude": 33.790034,
        "Longitude": -84.468182,
        "2017 Income per Capita": null,
        "2018 Income per Capita": null,
        "2019 Income per Capita": null,
        "2020 Income per Capita": null
    },
    {
        "Agency Name": "Appling County Sheriff's Office",
        "County": "Appling County",
        "Latitude": 31.782509,
        "Longitude": -82.35828,
        "2017 Income per Capita": 33240.0,
        "2018 Income per Capita": 33620.0,
        "2019 Income per Capita": 35558.0,
        "2020 Income per Capita": 39199.0
    },
    {
        "Agency Name": "Baxley Police Department",
        "County": "Appling County",
        "Latitude": 31.739712,
        "Longitude": -82.290103,
        "2017 Income per Capita": 33240.0,
        "2018 Income per Capita": 33620.0,
        "2019 Income per Capita": 35558.0,
        "2020 Income per Capita": 39199.0
    },
    {
        "Agency Name": "Willacoochee Police Department",
        "County": "Atkinson County",
        "Latitude": 31.340805,
        "Longitude": -83.04818,
        "2017 Income per Capita": 28937.0,
        "2018 Income per Capita": 28962.0,
        "2019 Income per Capita": 30251.0,
        "2020 Income per Capita": 31938.0
    },
    {
        "Agency Name": "Atkinson County Sheriff's Office",
        "County": "Atkinson County",
        "Latitude": 31.296677,
        "Longitude": -82.878067,
        "2017 Income per Capita": 28937.0,
        "2018 Income per Capita": 28962.0,
        "2019 Income per Capita": 30251.0,
        "2020 Income per Capita": 31938.0
    },
    {
        "Agency Name": "Pearson Police Department",
        "County": "Atkinson County",
        "Latitude": 31.296677,
        "Longitude": -82.878067,
        "2017 Income per Capita": 28937.0,
        "2018 Income per Capita": 28962.0,
        "2019 Income per Capita": 30251.0,
        "2020 Income per Capita": 31938.0
    },
    {
        "Agency Name": "Bacon County Sheriff's Office",
        "County": "Bacon County",
        "Latitude": 31.563327,
        "Longitude": -82.387859,
        "2017 Income per Capita": 31441.0,
        "2018 Income per Capita": 31516.0,
        "2019 Income per Capita": 32784.0,
        "2020 Income per Capita": 38281.0
    },
    {
        "Agency Name": "Alma Police Department",
        "County": "Bacon County",
        "Latitude": 31.563327,
        "Longitude": -82.387859,
        "2017 Income per Capita": 31441.0,
        "2018 Income per Capita": 31516.0,
        "2019 Income per Capita": 32784.0,
        "2020 Income per Capita": 38281.0
    },
    {
        "Agency Name": "Baker County Sheriff's Office",
        "County": "Baker County",
        "Latitude": 31.31958,
        "Longitude": -84.454881,
        "2017 Income per Capita": 33548.0,
        "2018 Income per Capita": 35175.0,
        "2019 Income per Capita": 39932.0,
        "2020 Income per Capita": 43156.0
    },
    {
        "Agency Name": "Newton Police Department",
        "County": "Baker County",
        "Latitude": 31.31958,
        "Longitude": -84.454881,
        "2017 Income per Capita": 33548.0,
        "2018 Income per Capita": 35175.0,
        "2019 Income per Capita": 39932.0,
        "2020 Income per Capita": 43156.0
    },
    {
        "Agency Name": "Georgia Military College",
        "County": "Baldwin County",
        "Latitude": 33.08015,
        "Longitude": -83.22491,
        "2017 Income per Capita": 31915.0,
        "2018 Income per Capita": 32534.0,
        "2019 Income per Capita": 33865.0,
        "2020 Income per Capita": 36399.0
    },
    {
        "Agency Name": "State Patrol: Milledgeville",
        "County": "Baldwin County",
        "Latitude": 33.059504,
        "Longitude": -83.255452,
        "2017 Income per Capita": 31915.0,
        "2018 Income per Capita": 32534.0,
        "2019 Income per Capita": 33865.0,
        "2020 Income per Capita": 36399.0
    },
    {
        "Agency Name": "Baldwin County Sheriff's Office",
        "County": "Baldwin County",
        "Latitude": 33.059504,
        "Longitude": -83.255452,
        "2017 Income per Capita": 31915.0,
        "2018 Income per Capita": 32534.0,
        "2019 Income per Capita": 33865.0,
        "2020 Income per Capita": 36399.0
    },
    {
        "Agency Name": "Milledgeville Police Department",
        "County": "Baldwin County",
        "Latitude": 33.082405,
        "Longitude": -83.228714,
        "2017 Income per Capita": 31915.0,
        "2018 Income per Capita": 32534.0,
        "2019 Income per Capita": 33865.0,
        "2020 Income per Capita": 36399.0
    },
    {
        "Agency Name": "Georgia College and State University",
        "County": "Baldwin County",
        "Latitude": 33.059504,
        "Longitude": -83.255452,
        "2017 Income per Capita": 31915.0,
        "2018 Income per Capita": 32534.0,
        "2019 Income per Capita": 33865.0,
        "2020 Income per Capita": 36399.0
    },
    {
        "Agency Name": "Banks County Sheriff's Office",
        "County": "Banks County",
        "Latitude": 34.351922,
        "Longitude": -83.498441,
        "2017 Income per Capita": 35193.0,
        "2018 Income per Capita": 35862.0,
        "2019 Income per Capita": 35990.0,
        "2020 Income per Capita": 37333.0
    },
    {
        "Agency Name": "Baldwin Police Department",
        "County": "Banks; Habersham County",
        "Latitude": 34.635108,
        "Longitude": -83.526406,
        "2017 Income per Capita": null,
        "2018 Income per Capita": null,
        "2019 Income per Capita": null,
        "2020 Income per Capita": null
    },
    {
        "Agency Name": "Alto Police Department",
        "County": "Banks; Habersham County",
        "Latitude": 34.635108,
        "Longitude": -83.526406,
        "2017 Income per Capita": null,
        "2018 Income per Capita": null,
        "2019 Income per Capita": null,
        "2020 Income per Capita": null
    },
    {
        "Agency Name": "Maysville Police Department",
        "County": "Banks; Jackson County",
        "Latitude": 34.351922,
        "Longitude": -83.498441,
        "2017 Income per Capita": null,
        "2018 Income per Capita": null,
        "2019 Income per Capita": null,
        "2020 Income per Capita": null
    },
    {
        "Agency Name": "Winder Police Department",
        "County": "Barrow County",
        "Latitude": 33.993984,
        "Longitude": -83.71819,
        "2017 Income per Capita": 35807.0,
        "2018 Income per Capita": 36720.0,
        "2019 Income per Capita": 37318.0,
        "2020 Income per Capita": 40435.0
    },
    {
        "Agency Name": "Barrow County Sheriff's Office",
        "County": "Barrow County",
        "Latitude": 33.992009,
        "Longitude": -83.712303,
        "2017 Income per Capita": 35807.0,
        "2018 Income per Capita": 36720.0,
        "2019 Income per Capita": 37318.0,
        "2020 Income per Capita": 40435.0
    },
    {
        "Agency Name": "Statham Police Department",
        "County": "Barrow County",
        "Latitude": 33.992009,
        "Longitude": -83.712303,
        "2017 Income per Capita": 35807.0,
        "2018 Income per Capita": 36720.0,
        "2019 Income per Capita": 37318.0,
        "2020 Income per Capita": 40435.0
    },
    {
        "Agency Name": "Braselton Police Department",
        "County": "Barrow; Hall; Jackson; Gwinnett County",
        "Latitude": 34.134157,
        "Longitude": -83.565133,
        "2017 Income per Capita": null,
        "2018 Income per Capita": null,
        "2019 Income per Capita": null,
        "2020 Income per Capita": null
    },
    {
        "Agency Name": "Euharlee Police Department",
        "County": "Bartow County",
        "Latitude": 34.240917,
        "Longitude": -84.838188,
        "2017 Income per Capita": 37028.0,
        "2018 Income per Capita": 38310.0,
        "2019 Income per Capita": 39755.0,
        "2020 Income per Capita": 42734.0
    },
    {
        "Agency Name": "State Patrol: Cartersville",
        "County": "Bartow County",
        "Latitude": 34.204853,
        "Longitude": -84.81206,
        "2017 Income per Capita": 37028.0,
        "2018 Income per Capita": 38310.0,
        "2019 Income per Capita": 39755.0,
        "2020 Income per Capita": 42734.0
    },
    {
        "Agency Name": "White Police Department",
        "County": "Bartow County",
        "Latitude": 34.240917,
        "Longitude": -84.838188,
        "2017 Income per Capita": 37028.0,
        "2018 Income per Capita": 38310.0,
        "2019 Income per Capita": 39755.0,
        "2020 Income per Capita": 42734.0
    },
    {
        "Agency Name": "Emerson Police Department",
        "County": "Bartow County",
        "Latitude": 34.240917,
        "Longitude": -84.838188,
        "2017 Income per Capita": 37028.0,
        "2018 Income per Capita": 38310.0,
        "2019 Income per Capita": 39755.0,
        "2020 Income per Capita": 42734.0
    },
    {
        "Agency Name": "Cartersville Police Department",
        "County": "Bartow County",
        "Latitude": 34.240917,
        "Longitude": -84.838188,
        "2017 Income per Capita": 37028.0,
        "2018 Income per Capita": 38310.0,
        "2019 Income per Capita": 39755.0,
        "2020 Income per Capita": 42734.0
    },
    {
        "Agency Name": "Adairsville Police Department",
        "County": "Bartow County",
        "Latitude": 34.368633,
        "Longitude": -84.93449,
        "2017 Income per Capita": 37028.0,
        "2018 Income per Capita": 38310.0,
        "2019 Income per Capita": 39755.0,
        "2020 Income per Capita": 42734.0
    },
    {
        "Agency Name": "Bartow County Sheriff's Office",
        "County": "Bartow County",
        "Latitude": 34.240917,
        "Longitude": -84.838188,
        "2017 Income per Capita": 37028.0,
        "2018 Income per Capita": 38310.0,
        "2019 Income per Capita": 39755.0,
        "2020 Income per Capita": 42734.0
    },
    {
        "Agency Name": "Kingston Police Department",
        "County": "Bartow County",
        "Latitude": 34.240917,
        "Longitude": -84.838188,
        "2017 Income per Capita": 37028.0,
        "2018 Income per Capita": 38310.0,
        "2019 Income per Capita": 39755.0,
        "2020 Income per Capita": 42734.0
    },
    {
        "Agency Name": "Fitzgerald Police Department",
        "County": "Ben Hill County",
        "Latitude": 31.740775,
        "Longitude": -83.14719,
        "2017 Income per Capita": 29600.0,
        "2018 Income per Capita": 31250.0,
        "2019 Income per Capita": 32539.0,
        "2020 Income per Capita": 36234.0
    },
    {
        "Agency Name": "Ben Hill County Sheriff's Office",
        "County": "Ben Hill County",
        "Latitude": 31.740775,
        "Longitude": -83.14719,
        "2017 Income per Capita": 29600.0,
        "2018 Income per Capita": 31250.0,
        "2019 Income per Capita": 32539.0,
        "2020 Income per Capita": 36234.0
    },
    {
        "Agency Name": "Nashville Police Department",
        "County": "Berrien County",
        "Latitude": 31.274308,
        "Longitude": -83.231906,
        "2017 Income per Capita": 30822.0,
        "2018 Income per Capita": 31117.0,
        "2019 Income per Capita": 32573.0,
        "2020 Income per Capita": 35260.0
    },
    {
        "Agency Name": "Enigma Police Department",
        "County": "Berrien County",
        "Latitude": 31.07462,
        "Longitude": -83.20011,
        "2017 Income per Capita": 30822.0,
        "2018 Income per Capita": 31117.0,
        "2019 Income per Capita": 32573.0,
        "2020 Income per Capita": 35260.0
    },
    {
        "Agency Name": "Berrien County Sheriff's Office",
        "County": "Berrien County",
        "Latitude": 31.191711,
        "Longitude": -83.27352,
        "2017 Income per Capita": 30822.0,
        "2018 Income per Capita": 31117.0,
        "2019 Income per Capita": 32573.0,
        "2020 Income per Capita": 35260.0
    },
    {
        "Agency Name": "Alapaha Police Department",
        "County": "Berrien County",
        "Latitude": 31.274308,
        "Longitude": -83.231906,
        "2017 Income per Capita": 30822.0,
        "2018 Income per Capita": 31117.0,
        "2019 Income per Capita": 32573.0,
        "2020 Income per Capita": 35260.0
    },
    {
        "Agency Name": "Bibb County Sheriff's Office",
        "County": "Bibb County",
        "Latitude": 32.831833,
        "Longitude": -83.64161,
        "2017 Income per Capita": 39509.0,
        "2018 Income per Capita": 40433.0,
        "2019 Income per Capita": 41517.0,
        "2020 Income per Capita": 44830.0
    },
    {
        "Agency Name": "Georgia Forestry Commission",
        "County": "Bibb County",
        "Latitude": 32.808844,
        "Longitude": -83.694193,
        "2017 Income per Capita": 39509.0,
        "2018 Income per Capita": 40433.0,
        "2019 Income per Capita": 41517.0,
        "2020 Income per Capita": 44830.0
    },
    {
        "Agency Name": "Bibb County Board of Education",
        "County": "Bibb County",
        "Latitude": 32.841473,
        "Longitude": -83.660034,
        "2017 Income per Capita": 39509.0,
        "2018 Income per Capita": 40433.0,
        "2019 Income per Capita": 41517.0,
        "2020 Income per Capita": 44830.0
    },
    {
        "Agency Name": "Mercer University",
        "County": "Bibb County",
        "Latitude": 32.82903,
        "Longitude": -83.648766,
        "2017 Income per Capita": 39509.0,
        "2018 Income per Capita": 40433.0,
        "2019 Income per Capita": 41517.0,
        "2020 Income per Capita": 44830.0
    },
    {
        "Agency Name": "Wesleyan College",
        "County": "Bibb County",
        "Latitude": 32.876038,
        "Longitude": -83.71381,
        "2017 Income per Capita": 39509.0,
        "2018 Income per Capita": 40433.0,
        "2019 Income per Capita": 41517.0,
        "2020 Income per Capita": 44830.0
    },
    {
        "Agency Name": "Middle Georgia State University",
        "County": "Bleckley County",
        "Latitude": 32.435403,
        "Longitude": -83.331717,
        "2017 Income per Capita": 33013.0,
        "2018 Income per Capita": 33520.0,
        "2019 Income per Capita": 34464.0,
        "2020 Income per Capita": 36712.0
    },
    {
        "Agency Name": "Bleckley County Sheriff's Office",
        "County": "Bleckley County",
        "Latitude": 32.435403,
        "Longitude": -83.331717,
        "2017 Income per Capita": 33013.0,
        "2018 Income per Capita": 33520.0,
        "2019 Income per Capita": 34464.0,
        "2020 Income per Capita": 36712.0
    },
    {
        "Agency Name": "Cochran Police Department",
        "County": "Bleckley County",
        "Latitude": 32.386444,
        "Longitude": -83.35458,
        "2017 Income per Capita": 33013.0,
        "2018 Income per Capita": 33520.0,
        "2019 Income per Capita": 34464.0,
        "2020 Income per Capita": 36712.0
    },
    {
        "Agency Name": "Nahunta Police Department",
        "County": "Brantley County",
        "Latitude": 31.197334,
        "Longitude": -81.982978,
        "2017 Income per Capita": 26070.0,
        "2018 Income per Capita": 27046.0,
        "2019 Income per Capita": 27472.0,
        "2020 Income per Capita": 30007.0
    },
    {
        "Agency Name": "Hoboken Police Department",
        "County": "Brantley County",
        "Latitude": 31.197334,
        "Longitude": -81.982978,
        "2017 Income per Capita": 26070.0,
        "2018 Income per Capita": 27046.0,
        "2019 Income per Capita": 27472.0,
        "2020 Income per Capita": 30007.0
    },
    {
        "Agency Name": "Brantley County Sheriff's Office",
        "County": "Brantley County",
        "Latitude": 31.197334,
        "Longitude": -81.982978,
        "2017 Income per Capita": 26070.0,
        "2018 Income per Capita": 27046.0,
        "2019 Income per Capita": 27472.0,
        "2020 Income per Capita": 30007.0
    },
    {
        "Agency Name": "Brooks County Sheriff's Office",
        "County": "Brooks County",
        "Latitude": 30.822934,
        "Longitude": -83.581905,
        "2017 Income per Capita": 33756.0,
        "2018 Income per Capita": 34708.0,
        "2019 Income per Capita": 36742.0,
        "2020 Income per Capita": 40221.0
    },
    {
        "Agency Name": "Quitman Police Department",
        "County": "Brooks County",
        "Latitude": 30.7866,
        "Longitude": -83.5581,
        "2017 Income per Capita": 33756.0,
        "2018 Income per Capita": 34708.0,
        "2019 Income per Capita": 36742.0,
        "2020 Income per Capita": 40221.0
    },
    {
        "Agency Name": "Morven Police Department",
        "County": "Brooks County",
        "Latitude": 30.822934,
        "Longitude": -83.581905,
        "2017 Income per Capita": 33756.0,
        "2018 Income per Capita": 34708.0,
        "2019 Income per Capita": 36742.0,
        "2020 Income per Capita": 40221.0
    },
    {
        "Agency Name": "Pavo Police Department",
        "County": "Brooks; Thomas County",
        "Latitude": 30.864606,
        "Longitude": -83.91982,
        "2017 Income per Capita": null,
        "2018 Income per Capita": null,
        "2019 Income per Capita": null,
        "2020 Income per Capita": null
    },
    {
        "Agency Name": "Richmond Hill Police Department",
        "County": "Bryan County",
        "Latitude": 32.017969,
        "Longitude": -81.438543,
        "2017 Income per Capita": 50475.0,
        "2018 Income per Capita": 53382.0,
        "2019 Income per Capita": 53404.0,
        "2020 Income per Capita": 56648.0
    },
    {
        "Agency Name": "Pembroke Police Department",
        "County": "Bryan County",
        "Latitude": 32.017969,
        "Longitude": -81.438543,
        "2017 Income per Capita": 50475.0,
        "2018 Income per Capita": 53382.0,
        "2019 Income per Capita": 53404.0,
        "2020 Income per Capita": 56648.0
    },
    {
        "Agency Name": "Bryan County Sheriff's Office",
        "County": "Bryan County",
        "Latitude": 32.017969,
        "Longitude": -81.438543,
        "2017 Income per Capita": 50475.0,
        "2018 Income per Capita": 53382.0,
        "2019 Income per Capita": 53404.0,
        "2020 Income per Capita": 56648.0
    },
    {
        "Agency Name": "Statesboro Police Department",
        "County": "Bulloch County",
        "Latitude": 32.445255,
        "Longitude": -81.7862,
        "2017 Income per Capita": 31342.0,
        "2018 Income per Capita": 32360.0,
        "2019 Income per Capita": 32718.0,
        "2020 Income per Capita": 35376.0
    },
    {
        "Agency Name": "Brooklet Police Department",
        "County": "Bulloch County",
        "Latitude": 32.393408,
        "Longitude": -81.74381,
        "2017 Income per Capita": 31342.0,
        "2018 Income per Capita": 32360.0,
        "2019 Income per Capita": 32718.0,
        "2020 Income per Capita": 35376.0
    },
    {
        "Agency Name": "Bulloch County Sheriff's Office",
        "County": "Bulloch County",
        "Latitude": 32.467293,
        "Longitude": -81.76302,
        "2017 Income per Capita": 31342.0,
        "2018 Income per Capita": 32360.0,
        "2019 Income per Capita": 32718.0,
        "2020 Income per Capita": 35376.0
    },
    {
        "Agency Name": "Register Police Department",
        "County": "Bulloch County",
        "Latitude": 32.367367,
        "Longitude": -81.88627,
        "2017 Income per Capita": 31342.0,
        "2018 Income per Capita": 32360.0,
        "2019 Income per Capita": 32718.0,
        "2020 Income per Capita": 35376.0
    },
    {
        "Agency Name": "Portal Police Department",
        "County": "Bulloch County",
        "Latitude": 32.393408,
        "Longitude": -81.74381,
        "2017 Income per Capita": 31342.0,
        "2018 Income per Capita": 32360.0,
        "2019 Income per Capita": 32718.0,
        "2020 Income per Capita": 35376.0
    },
    {
        "Agency Name": "Georgia Southern University",
        "County": "Bulloch County",
        "Latitude": 32.393408,
        "Longitude": -81.74381,
        "2017 Income per Capita": 31342.0,
        "2018 Income per Capita": 32360.0,
        "2019 Income per Capita": 32718.0,
        "2020 Income per Capita": 35376.0
    },
    {
        "Agency Name": "State Patrol: Statesboro",
        "County": "Bulloch County",
        "Latitude": 32.411438,
        "Longitude": -81.80494,
        "2017 Income per Capita": 31342.0,
        "2018 Income per Capita": 32360.0,
        "2019 Income per Capita": 32718.0,
        "2020 Income per Capita": 35376.0
    },
    {
        "Agency Name": "Midville Police Department",
        "County": "Burke County",
        "Latitude": 33.050819,
        "Longitude": -82.011571,
        "2017 Income per Capita": 34447.0,
        "2018 Income per Capita": 34940.0,
        "2019 Income per Capita": 38419.0,
        "2020 Income per Capita": 41973.0
    },
    {
        "Agency Name": "Waynesboro Police Department",
        "County": "Burke County",
        "Latitude": 33.091118,
        "Longitude": -82.015236,
        "2017 Income per Capita": 34447.0,
        "2018 Income per Capita": 34940.0,
        "2019 Income per Capita": 38419.0,
        "2020 Income per Capita": 41973.0
    },
    {
        "Agency Name": "Sardis Police Department",
        "County": "Burke County",
        "Latitude": 33.050819,
        "Longitude": -82.011571,
        "2017 Income per Capita": 34447.0,
        "2018 Income per Capita": 34940.0,
        "2019 Income per Capita": 38419.0,
        "2020 Income per Capita": 41973.0
    },
    {
        "Agency Name": "Burke  County Sheriff's Office",
        "County": "Burke County",
        "Latitude": 33.050819,
        "Longitude": -82.011571,
        "2017 Income per Capita": 34447.0,
        "2018 Income per Capita": 34940.0,
        "2019 Income per Capita": 38419.0,
        "2020 Income per Capita": 41973.0
    },
    {
        "Agency Name": "Blythe Police Department",
        "County": "Burke; Richmond County",
        "Latitude": 33.300552,
        "Longitude": -82.20991,
        "2017 Income per Capita": null,
        "2018 Income per Capita": null,
        "2019 Income per Capita": null,
        "2020 Income per Capita": null
    },
    {
        "Agency Name": "Butts County Sheriff's Office",
        "County": "Butts County",
        "Latitude": 33.296364,
        "Longitude": -83.94759,
        "2017 Income per Capita": 32752.0,
        "2018 Income per Capita": 34243.0,
        "2019 Income per Capita": 34761.0,
        "2020 Income per Capita": 37403.0
    },
    {
        "Agency Name": "Jackson Police Department",
        "County": "Butts County",
        "Latitude": 33.290355,
        "Longitude": -83.958221,
        "2017 Income per Capita": 32752.0,
        "2018 Income per Capita": 34243.0,
        "2019 Income per Capita": 34761.0,
        "2020 Income per Capita": 37403.0
    },
    {
        "Agency Name": "Leary Police Department",
        "County": "Calhoun County",
        "Latitude": 31.521279,
        "Longitude": -84.62629,
        "2017 Income per Capita": 24114.0,
        "2018 Income per Capita": 23262.0,
        "2019 Income per Capita": 25701.0,
        "2020 Income per Capita": 28426.0
    },
    {
        "Agency Name": "Edison Police Department",
        "County": "Calhoun County",
        "Latitude": 31.521279,
        "Longitude": -84.62629,
        "2017 Income per Capita": 24114.0,
        "2018 Income per Capita": 23262.0,
        "2019 Income per Capita": 25701.0,
        "2020 Income per Capita": 28426.0
    },
    {
        "Agency Name": "Calhoun County Sheriff's Office",
        "County": "Calhoun County",
        "Latitude": 31.521279,
        "Longitude": -84.62629,
        "2017 Income per Capita": 24114.0,
        "2018 Income per Capita": 23262.0,
        "2019 Income per Capita": 25701.0,
        "2020 Income per Capita": 28426.0
    },
    {
        "Agency Name": "Kingsland Police Department",
        "County": "Camden County",
        "Latitude": 30.913347,
        "Longitude": -81.642001,
        "2017 Income per Capita": 35493.0,
        "2018 Income per Capita": 35872.0,
        "2019 Income per Capita": 36807.0,
        "2020 Income per Capita": 39262.0
    },
    {
        "Agency Name": "St. Marys Police Department",
        "County": "Camden County",
        "Latitude": 30.753582,
        "Longitude": -81.52441,
        "2017 Income per Capita": 35493.0,
        "2018 Income per Capita": 35872.0,
        "2019 Income per Capita": 36807.0,
        "2020 Income per Capita": 39262.0
    },
    {
        "Agency Name": "Camden County Sheriff's Office",
        "County": "Camden County",
        "Latitude": 30.913347,
        "Longitude": -81.642001,
        "2017 Income per Capita": 35493.0,
        "2018 Income per Capita": 35872.0,
        "2019 Income per Capita": 36807.0,
        "2020 Income per Capita": 39262.0
    },
    {
        "Agency Name": "Metter Police Department",
        "County": "Candler County",
        "Latitude": 32.403997,
        "Longitude": -82.07131,
        "2017 Income per Capita": 31070.0,
        "2018 Income per Capita": 32024.0,
        "2019 Income per Capita": 33649.0,
        "2020 Income per Capita": 36613.0
    },
    {
        "Agency Name": "Candler County Sheriff's Office",
        "County": "Candler County",
        "Latitude": 32.403997,
        "Longitude": -82.07131,
        "2017 Income per Capita": 31070.0,
        "2018 Income per Capita": 32024.0,
        "2019 Income per Capita": 33649.0,
        "2020 Income per Capita": 36613.0
    },
    {
        "Agency Name": "State Patrol: Villa Rica",
        "County": "Carroll County",
        "Latitude": 33.582237,
        "Longitude": -85.080527,
        "2017 Income per Capita": 37126.0,
        "2018 Income per Capita": 38273.0,
        "2019 Income per Capita": 39725.0,
        "2020 Income per Capita": 42058.0
    },
    {
        "Agency Name": "University of West Georgia",
        "County": "Carroll County",
        "Latitude": 33.571545,
        "Longitude": -85.094604,
        "2017 Income per Capita": 37126.0,
        "2018 Income per Capita": 38273.0,
        "2019 Income per Capita": 39725.0,
        "2020 Income per Capita": 42058.0
    },
    {
        "Agency Name": "Temple Police Department",
        "County": "Carroll County",
        "Latitude": 33.582237,
        "Longitude": -85.080527,
        "2017 Income per Capita": 37126.0,
        "2018 Income per Capita": 38273.0,
        "2019 Income per Capita": 39725.0,
        "2020 Income per Capita": 42058.0
    },
    {
        "Agency Name": "Bowdon Police Department",
        "County": "Carroll County",
        "Latitude": 33.538067,
        "Longitude": -85.252075,
        "2017 Income per Capita": 37126.0,
        "2018 Income per Capita": 38273.0,
        "2019 Income per Capita": 39725.0,
        "2020 Income per Capita": 42058.0
    },
    {
        "Agency Name": "Whitesburg Police Department",
        "County": "Carroll County",
        "Latitude": 33.49634,
        "Longitude": -84.91557,
        "2017 Income per Capita": 37126.0,
        "2018 Income per Capita": 38273.0,
        "2019 Income per Capita": 39725.0,
        "2020 Income per Capita": 42058.0
    },
    {
        "Agency Name": "Carrollton Police Department",
        "County": "Carroll County",
        "Latitude": 33.582237,
        "Longitude": -85.080527,
        "2017 Income per Capita": 37126.0,
        "2018 Income per Capita": 38273.0,
        "2019 Income per Capita": 39725.0,
        "2020 Income per Capita": 42058.0
    },
    {
        "Agency Name": "Mount Zion Police Department",
        "County": "Carroll County",
        "Latitude": 33.582237,
        "Longitude": -85.080527,
        "2017 Income per Capita": 37126.0,
        "2018 Income per Capita": 38273.0,
        "2019 Income per Capita": 39725.0,
        "2020 Income per Capita": 42058.0
    },
    {
        "Agency Name": "Carroll County Sheriff's Office",
        "County": "Carroll County",
        "Latitude": 33.56817,
        "Longitude": -85.03639,
        "2017 Income per Capita": 37126.0,
        "2018 Income per Capita": 38273.0,
        "2019 Income per Capita": 39725.0,
        "2020 Income per Capita": 42058.0
    },
    {
        "Agency Name": "Bremen Police Department",
        "County": "Carroll; Haralson County",
        "Latitude": 33.795165,
        "Longitude": -85.220062,
        "2017 Income per Capita": null,
        "2018 Income per Capita": null,
        "2019 Income per Capita": null,
        "2020 Income per Capita": null
    },
    {
        "Agency Name": "Ringgold Police Department",
        "County": "Catoosa County",
        "Latitude": 34.91655,
        "Longitude": -85.10909,
        "2017 Income per Capita": 33929.0,
        "2018 Income per Capita": 34882.0,
        "2019 Income per Capita": 36030.0,
        "2020 Income per Capita": 38815.0
    },
    {
        "Agency Name": "Catoosa County Sheriff's Office",
        "County": "Catoosa County",
        "Latitude": 34.899393,
        "Longitude": -85.137353,
        "2017 Income per Capita": 33929.0,
        "2018 Income per Capita": 34882.0,
        "2019 Income per Capita": 36030.0,
        "2020 Income per Capita": 38815.0
    },
    {
        "Agency Name": "State Patrol: Brunswick",
        "County": "Catoosa County",
        "Latitude": 31.212746,
        "Longitude": -81.496517,
        "2017 Income per Capita": 33929.0,
        "2018 Income per Capita": 34882.0,
        "2019 Income per Capita": 36030.0,
        "2020 Income per Capita": 38815.0
    },
    {
        "Agency Name": "Charlton County Sheriff's Office",
        "County": "Charlton County",
        "Latitude": 30.830587,
        "Longitude": -82.00494,
        "2017 Income per Capita": 24177.0,
        "2018 Income per Capita": 24465.0,
        "2019 Income per Capita": 24884.0,
        "2020 Income per Capita": 27192.0
    },
    {
        "Agency Name": "Folkston Police Department",
        "County": "Charlton County",
        "Latitude": 30.779904,
        "Longitude": -82.139644,
        "2017 Income per Capita": 24177.0,
        "2018 Income per Capita": 24465.0,
        "2019 Income per Capita": 24884.0,
        "2020 Income per Capita": 27192.0
    },
    {
        "Agency Name": "Homeland Police Department",
        "County": "Charlton County",
        "Latitude": 30.856588,
        "Longitude": -82.02113,
        "2017 Income per Capita": 24177.0,
        "2018 Income per Capita": 24465.0,
        "2019 Income per Capita": 24884.0,
        "2020 Income per Capita": 27192.0
    },
    {
        "Agency Name": "Garden City Police Department",
        "County": "Chatham County",
        "Latitude": 31.980523,
        "Longitude": -81.08519,
        "2017 Income per Capita": 45559.0,
        "2018 Income per Capita": 47256.0,
        "2019 Income per Capita": 48545.0,
        "2020 Income per Capita": 51805.0
    },
    {
        "Agency Name": "Savannah Technical College",
        "County": "Chatham County",
        "Latitude": 31.980523,
        "Longitude": -81.08519,
        "2017 Income per Capita": 45559.0,
        "2018 Income per Capita": 47256.0,
        "2019 Income per Capita": 48545.0,
        "2020 Income per Capita": 51805.0
    },
    {
        "Agency Name": "Tybee Island Police Department",
        "County": "Chatham County",
        "Latitude": 31.980523,
        "Longitude": -81.08519,
        "2017 Income per Capita": 45559.0,
        "2018 Income per Capita": 47256.0,
        "2019 Income per Capita": 48545.0,
        "2020 Income per Capita": 51805.0
    },
    {
        "Agency Name": "State Patrol: Savannah",
        "County": "Chatham County",
        "Latitude": 32.361711,
        "Longitude": -81.343337,
        "2017 Income per Capita": 45559.0,
        "2018 Income per Capita": 47256.0,
        "2019 Income per Capita": 48545.0,
        "2020 Income per Capita": 51805.0
    },
    {
        "Agency Name": "Chatham County Police Department",
        "County": "Chatham County",
        "Latitude": 32.060173,
        "Longitude": -81.166336,
        "2017 Income per Capita": 45559.0,
        "2018 Income per Capita": 47256.0,
        "2019 Income per Capita": 48545.0,
        "2020 Income per Capita": 51805.0
    },
    {
        "Agency Name": "Port Wentworth Police Department",
        "County": "Chatham County",
        "Latitude": 32.146427,
        "Longitude": -81.160324,
        "2017 Income per Capita": 45559.0,
        "2018 Income per Capita": 47256.0,
        "2019 Income per Capita": 48545.0,
        "2020 Income per Capita": 51805.0
    },
    {
        "Agency Name": "Chatham County Sheriff's Office",
        "County": "Chatham County",
        "Latitude": 31.980523,
        "Longitude": -81.08519,
        "2017 Income per Capita": 45559.0,
        "2018 Income per Capita": 47256.0,
        "2019 Income per Capita": 48545.0,
        "2020 Income per Capita": 51805.0
    },
    {
        "Agency Name": "Pooler Police Department",
        "County": "Chatham County",
        "Latitude": 32.115654,
        "Longitude": -81.24752,
        "2017 Income per Capita": 45559.0,
        "2018 Income per Capita": 47256.0,
        "2019 Income per Capita": 48545.0,
        "2020 Income per Capita": 51805.0
    },
    {
        "Agency Name": "Chatham County Board of Education",
        "County": "Chatham County",
        "Latitude": 31.980523,
        "Longitude": -81.08519,
        "2017 Income per Capita": 45559.0,
        "2018 Income per Capita": 47256.0,
        "2019 Income per Capita": 48545.0,
        "2020 Income per Capita": 51805.0
    },
    {
        "Agency Name": "Savannah-Chatham Metropolitan Police Department",
        "County": "Chatham County",
        "Latitude": 32.075733,
        "Longitude": -81.088394,
        "2017 Income per Capita": 45559.0,
        "2018 Income per Capita": 47256.0,
        "2019 Income per Capita": 48545.0,
        "2020 Income per Capita": 51805.0
    },
    {
        "Agency Name": "Savannah Fire and Emergency Services Arson Unit",
        "County": "Chatham County",
        "Latitude": 32.08216,
        "Longitude": -81.09664,
        "2017 Income per Capita": 45559.0,
        "2018 Income per Capita": 47256.0,
        "2019 Income per Capita": 48545.0,
        "2020 Income per Capita": 51805.0
    },
    {
        "Agency Name": "Savannah State University",
        "County": "Chatham County",
        "Latitude": 32.02476,
        "Longitude": -81.05566,
        "2017 Income per Capita": 45559.0,
        "2018 Income per Capita": 47256.0,
        "2019 Income per Capita": 48545.0,
        "2020 Income per Capita": 51805.0
    },
    {
        "Agency Name": "Ports Authority Savannah",
        "County": "Chatham County",
        "Latitude": 31.980523,
        "Longitude": -81.08519,
        "2017 Income per Capita": 45559.0,
        "2018 Income per Capita": 47256.0,
        "2019 Income per Capita": 48545.0,
        "2020 Income per Capita": 51805.0
    },
    {
        "Agency Name": "Bloomingdale Police Department",
        "County": "Chatham County",
        "Latitude": 31.980523,
        "Longitude": -81.08519,
        "2017 Income per Capita": 45559.0,
        "2018 Income per Capita": 47256.0,
        "2019 Income per Capita": 48545.0,
        "2020 Income per Capita": 51805.0
    },
    {
        "Agency Name": "Thunderbolt Police Department",
        "County": "Chatham County",
        "Latitude": 32.031807,
        "Longitude": -81.050545,
        "2017 Income per Capita": 45559.0,
        "2018 Income per Capita": 47256.0,
        "2019 Income per Capita": 48545.0,
        "2020 Income per Capita": 51805.0
    },
    {
        "Agency Name": "Chattahoochee County Sheriff's Office",
        "County": "Chattahoochee County",
        "Latitude": 32.347445,
        "Longitude": -84.788021,
        "2017 Income per Capita": 31503.0,
        "2018 Income per Capita": 29964.0,
        "2019 Income per Capita": 30433.0,
        "2020 Income per Capita": 33166.0
    },
    {
        "Agency Name": "Trion Police Department",
        "County": "Chattooga County",
        "Latitude": 34.54347,
        "Longitude": -85.312996,
        "2017 Income per Capita": 29702.0,
        "2018 Income per Capita": 30296.0,
        "2019 Income per Capita": 31069.0,
        "2020 Income per Capita": 33855.0
    },
    {
        "Agency Name": "Summerville Police Department",
        "County": "Chattooga County",
        "Latitude": 34.474178,
        "Longitude": -85.345289,
        "2017 Income per Capita": 29702.0,
        "2018 Income per Capita": 30296.0,
        "2019 Income per Capita": 31069.0,
        "2020 Income per Capita": 33855.0
    },
    {
        "Agency Name": "Chattooga County Sheriff's Office",
        "County": "Chattooga County",
        "Latitude": 34.480766,
        "Longitude": -85.34815,
        "2017 Income per Capita": 29702.0,
        "2018 Income per Capita": 30296.0,
        "2019 Income per Capita": 31069.0,
        "2020 Income per Capita": 33855.0
    },
    {
        "Agency Name": "Canton Police Department",
        "County": "Cherokee County",
        "Latitude": 34.23541,
        "Longitude": -84.490005,
        "2017 Income per Capita": 50281.0,
        "2018 Income per Capita": 52052.0,
        "2019 Income per Capita": 53774.0,
        "2020 Income per Capita": 56278.0
    },
    {
        "Agency Name": "Woodstock Police Department",
        "County": "Cherokee County",
        "Latitude": 34.08742,
        "Longitude": -84.47999,
        "2017 Income per Capita": 50281.0,
        "2018 Income per Capita": 52052.0,
        "2019 Income per Capita": 53774.0,
        "2020 Income per Capita": 56278.0
    },
    {
        "Agency Name": "Cherokee County Sheriff's Office",
        "County": "Cherokee County",
        "Latitude": 34.196648,
        "Longitude": -84.49234,
        "2017 Income per Capita": 50281.0,
        "2018 Income per Capita": 52052.0,
        "2019 Income per Capita": 53774.0,
        "2020 Income per Capita": 56278.0
    },
    {
        "Agency Name": "Ball Ground Police Department",
        "County": "Cherokee County",
        "Latitude": 34.244317,
        "Longitude": -84.475057,
        "2017 Income per Capita": 50281.0,
        "2018 Income per Capita": 52052.0,
        "2019 Income per Capita": 53774.0,
        "2020 Income per Capita": 56278.0
    },
    {
        "Agency Name": "Cherokee County Board of Education",
        "County": "Cherokee County",
        "Latitude": 34.236027,
        "Longitude": -84.49235,
        "2017 Income per Capita": 50281.0,
        "2018 Income per Capita": 52052.0,
        "2019 Income per Capita": 53774.0,
        "2020 Income per Capita": 56278.0
    },
    {
        "Agency Name": "Holly Springs Police Department",
        "County": "Cherokee County",
        "Latitude": 34.244317,
        "Longitude": -84.475057,
        "2017 Income per Capita": 50281.0,
        "2018 Income per Capita": 52052.0,
        "2019 Income per Capita": 53774.0,
        "2020 Income per Capita": 56278.0
    },
    {
        "Agency Name": "State Patrol: Canton",
        "County": "Cherokee County",
        "Latitude": 34.45614,
        "Longitude": -84.44865,
        "2017 Income per Capita": 50281.0,
        "2018 Income per Capita": 52052.0,
        "2019 Income per Capita": 53774.0,
        "2020 Income per Capita": 56278.0
    },
    {
        "Agency Name": "Cherokee County Marshal",
        "County": "Cherokee County",
        "Latitude": 34.244317,
        "Longitude": -84.475057,
        "2017 Income per Capita": 50281.0,
        "2018 Income per Capita": 52052.0,
        "2019 Income per Capita": 53774.0,
        "2020 Income per Capita": 56278.0
    },
    {
        "Agency Name": "Nelson Police Department",
        "County": "Cherokee; Pickens County",
        "Latitude": 34.456625,
        "Longitude": -84.490263,
        "2017 Income per Capita": null,
        "2018 Income per Capita": null,
        "2019 Income per Capita": null,
        "2020 Income per Capita": null
    },
    {
        "Agency Name": "Clarke County Sheriff's Office",
        "County": "Clarke County",
        "Latitude": 33.9596,
        "Longitude": -83.37472,
        "2017 Income per Capita": 32362.0,
        "2018 Income per Capita": 33481.0,
        "2019 Income per Capita": 34935.0,
        "2020 Income per Capita": 37588.0
    },
    {
        "Agency Name": "State Patrol: Athens",
        "County": "Clarke County",
        "Latitude": 33.952185,
        "Longitude": -83.367152,
        "2017 Income per Capita": 32362.0,
        "2018 Income per Capita": 33481.0,
        "2019 Income per Capita": 34935.0,
        "2020 Income per Capita": 37588.0
    },
    {
        "Agency Name": "Winterville Police Department",
        "County": "Clarke County",
        "Latitude": 33.952185,
        "Longitude": -83.367152,
        "2017 Income per Capita": 32362.0,
        "2018 Income per Capita": 33481.0,
        "2019 Income per Capita": 34935.0,
        "2020 Income per Capita": 37588.0
    },
    {
        "Agency Name": "Athens-Clarke County Police Department",
        "County": "Clarke County",
        "Latitude": 33.94101,
        "Longitude": -83.32669,
        "2017 Income per Capita": 32362.0,
        "2018 Income per Capita": 33481.0,
        "2019 Income per Capita": 34935.0,
        "2020 Income per Capita": 37588.0
    },
    {
        "Agency Name": "State Patrol: Cedartown",
        "County": "Clarke County",
        "Latitude": 33.996015,
        "Longitude": -85.188338,
        "2017 Income per Capita": 32362.0,
        "2018 Income per Capita": 33481.0,
        "2019 Income per Capita": 34935.0,
        "2020 Income per Capita": 37588.0
    },
    {
        "Agency Name": "University of Georgia",
        "County": "Clarke County",
        "Latitude": 33.952185,
        "Longitude": -83.367152,
        "2017 Income per Capita": 32362.0,
        "2018 Income per Capita": 33481.0,
        "2019 Income per Capita": 34935.0,
        "2020 Income per Capita": 37588.0
    },
    {
        "Agency Name": "Clay County Sheriff's Office",
        "County": "Clay County",
        "Latitude": 31.619831,
        "Longitude": -84.992583,
        "2017 Income per Capita": 30808.0,
        "2018 Income per Capita": 32081.0,
        "2019 Income per Capita": 34175.0,
        "2020 Income per Capita": 38731.0
    },
    {
        "Agency Name": "Clayton State University",
        "County": "Clayton County",
        "Latitude": 33.542686,
        "Longitude": -84.355573,
        "2017 Income per Capita": 26721.0,
        "2018 Income per Capita": 27430.0,
        "2019 Income per Capita": 28329.0,
        "2020 Income per Capita": 32702.0
    },
    {
        "Agency Name": "Clayton County Sheriff's Office",
        "County": "Clayton County",
        "Latitude": 33.51437,
        "Longitude": -84.36194,
        "2017 Income per Capita": 26721.0,
        "2018 Income per Capita": 27430.0,
        "2019 Income per Capita": 28329.0,
        "2020 Income per Capita": 32702.0
    },
    {
        "Agency Name": "Clayton County Police Department",
        "County": "Clayton County",
        "Latitude": 33.541374,
        "Longitude": -84.34508,
        "2017 Income per Capita": 26721.0,
        "2018 Income per Capita": 27430.0,
        "2019 Income per Capita": 28329.0,
        "2020 Income per Capita": 32702.0
    },
    {
        "Agency Name": "Riverdale Police Department",
        "County": "Clayton County",
        "Latitude": 33.572205,
        "Longitude": -84.415726,
        "2017 Income per Capita": 26721.0,
        "2018 Income per Capita": 27430.0,
        "2019 Income per Capita": 28329.0,
        "2020 Income per Capita": 32702.0
    },
    {
        "Agency Name": "Forest Park Police Department",
        "County": "Clayton County",
        "Latitude": 33.60854,
        "Longitude": -84.37918,
        "2017 Income per Capita": 26721.0,
        "2018 Income per Capita": 27430.0,
        "2019 Income per Capita": 28329.0,
        "2020 Income per Capita": 32702.0
    },
    {
        "Agency Name": "Morrow Police Department",
        "County": "Clayton County",
        "Latitude": 33.582436,
        "Longitude": -84.33722,
        "2017 Income per Capita": 26721.0,
        "2018 Income per Capita": 27430.0,
        "2019 Income per Capita": 28329.0,
        "2020 Income per Capita": 32702.0
    },
    {
        "Agency Name": "Lake City Police Department",
        "County": "Clayton County",
        "Latitude": 33.60693,
        "Longitude": -84.34333,
        "2017 Income per Capita": 26721.0,
        "2018 Income per Capita": 27430.0,
        "2019 Income per Capita": 28329.0,
        "2020 Income per Capita": 32702.0
    },
    {
        "Agency Name": "Jonesboro Police Department",
        "County": "Clayton County",
        "Latitude": 33.516556,
        "Longitude": -84.353935,
        "2017 Income per Capita": 26721.0,
        "2018 Income per Capita": 27430.0,
        "2019 Income per Capita": 28329.0,
        "2020 Income per Capita": 32702.0
    },
    {
        "Agency Name": "College Park Police Department",
        "County": "Clayton; Fulton County",
        "Latitude": 33.653915,
        "Longitude": -84.451324,
        "2017 Income per Capita": null,
        "2018 Income per Capita": null,
        "2019 Income per Capita": null,
        "2020 Income per Capita": null
    },
    {
        "Agency Name": "Homerville Police Department",
        "County": "Clinch County",
        "Latitude": 30.917653,
        "Longitude": -82.702614,
        "2017 Income per Capita": 35573.0,
        "2018 Income per Capita": 36689.0,
        "2019 Income per Capita": 38551.0,
        "2020 Income per Capita": 44238.0
    },
    {
        "Agency Name": "Clinch County Sheriff's Office",
        "County": "Clinch County",
        "Latitude": 31.039433,
        "Longitude": -82.749954,
        "2017 Income per Capita": 35573.0,
        "2018 Income per Capita": 36689.0,
        "2019 Income per Capita": 38551.0,
        "2020 Income per Capita": 44238.0
    },
    {
        "Agency Name": "Marietta Police Department",
        "County": "Cobb County",
        "Latitude": 33.95526,
        "Longitude": -84.54541,
        "2017 Income per Capita": 55448.0,
        "2018 Income per Capita": 57762.0,
        "2019 Income per Capita": 60383.0,
        "2020 Income per Capita": 63214.0
    },
    {
        "Agency Name": "Kennesaw Police Department",
        "County": "Cobb County",
        "Latitude": 33.93994,
        "Longitude": -84.574166,
        "2017 Income per Capita": 55448.0,
        "2018 Income per Capita": 57762.0,
        "2019 Income per Capita": 60383.0,
        "2020 Income per Capita": 63214.0
    },
    {
        "Agency Name": "Powder Springs Police Department",
        "County": "Cobb County",
        "Latitude": 33.93994,
        "Longitude": -84.574166,
        "2017 Income per Capita": 55448.0,
        "2018 Income per Capita": 57762.0,
        "2019 Income per Capita": 60383.0,
        "2020 Income per Capita": 63214.0
    },
    {
        "Agency Name": "Kennesaw State University",
        "County": "Cobb County",
        "Latitude": 33.93994,
        "Longitude": -84.574166,
        "2017 Income per Capita": 55448.0,
        "2018 Income per Capita": 57762.0,
        "2019 Income per Capita": 60383.0,
        "2020 Income per Capita": 63214.0
    },
    {
        "Agency Name": "Cobb County Police Department",
        "County": "Cobb County",
        "Latitude": 33.958862,
        "Longitude": -84.54633,
        "2017 Income per Capita": 55448.0,
        "2018 Income per Capita": 57762.0,
        "2019 Income per Capita": 60383.0,
        "2020 Income per Capita": 63214.0
    },
    {
        "Agency Name": "Smyrna Police Department",
        "County": "Cobb County",
        "Latitude": 33.888607,
        "Longitude": -84.51593,
        "2017 Income per Capita": 55448.0,
        "2018 Income per Capita": 57762.0,
        "2019 Income per Capita": 60383.0,
        "2020 Income per Capita": 63214.0
    },
    {
        "Agency Name": "Cobb County Board of Education",
        "County": "Cobb County",
        "Latitude": 33.916363,
        "Longitude": -84.546295,
        "2017 Income per Capita": 55448.0,
        "2018 Income per Capita": 57762.0,
        "2019 Income per Capita": 60383.0,
        "2020 Income per Capita": 63214.0
    },
    {
        "Agency Name": "Acworth Police Department",
        "County": "Cobb County",
        "Latitude": 34.06116,
        "Longitude": -84.66078,
        "2017 Income per Capita": 55448.0,
        "2018 Income per Capita": 57762.0,
        "2019 Income per Capita": 60383.0,
        "2020 Income per Capita": 63214.0
    },
    {
        "Agency Name": "State Patrol: Marietta",
        "County": "Cobb County",
        "Latitude": 33.93994,
        "Longitude": -84.574166,
        "2017 Income per Capita": 55448.0,
        "2018 Income per Capita": 57762.0,
        "2019 Income per Capita": 60383.0,
        "2020 Income per Capita": 63214.0
    },
    {
        "Agency Name": "Cobb County Sheriff's Office",
        "County": "Cobb County",
        "Latitude": 33.952282,
        "Longitude": -84.5482,
        "2017 Income per Capita": 55448.0,
        "2018 Income per Capita": 57762.0,
        "2019 Income per Capita": 60383.0,
        "2020 Income per Capita": 63214.0
    },
    {
        "Agency Name": "Coffee County Sheriff's Office",
        "County": "Coffee County",
        "Latitude": 31.549245,
        "Longitude": -82.844938,
        "2017 Income per Capita": 31301.0,
        "2018 Income per Capita": 31761.0,
        "2019 Income per Capita": 32880.0,
        "2020 Income per Capita": 35507.0
    },
    {
        "Agency Name": "South Georgia State College",
        "County": "Coffee County",
        "Latitude": 31.497084,
        "Longitude": -82.85074,
        "2017 Income per Capita": 31301.0,
        "2018 Income per Capita": 31761.0,
        "2019 Income per Capita": 32880.0,
        "2020 Income per Capita": 35507.0
    },
    {
        "Agency Name": "Nicholls Police Department",
        "County": "Coffee County",
        "Latitude": 31.549245,
        "Longitude": -82.844938,
        "2017 Income per Capita": 31301.0,
        "2018 Income per Capita": 31761.0,
        "2019 Income per Capita": 32880.0,
        "2020 Income per Capita": 35507.0
    },
    {
        "Agency Name": "Douglas Police Department",
        "County": "Coffee County",
        "Latitude": 31.511168,
        "Longitude": -82.852135,
        "2017 Income per Capita": 31301.0,
        "2018 Income per Capita": 31761.0,
        "2019 Income per Capita": 32880.0,
        "2020 Income per Capita": 35507.0
    },
    {
        "Agency Name": "State Patrol: Douglas",
        "County": "Coffee County",
        "Latitude": 31.477943,
        "Longitude": -82.85098,
        "2017 Income per Capita": 31301.0,
        "2018 Income per Capita": 31761.0,
        "2019 Income per Capita": 32880.0,
        "2020 Income per Capita": 35507.0
    },
    {
        "Agency Name": "Broxton Police Department",
        "County": "Coffee County",
        "Latitude": 31.549245,
        "Longitude": -82.844938,
        "2017 Income per Capita": 31301.0,
        "2018 Income per Capita": 31761.0,
        "2019 Income per Capita": 32880.0,
        "2020 Income per Capita": 35507.0
    },
    {
        "Agency Name": "Berlin Police Department",
        "County": "Colquitt County",
        "Latitude": 31.189758,
        "Longitude": -83.769741,
        "2017 Income per Capita": 32304.0,
        "2018 Income per Capita": 32728.0,
        "2019 Income per Capita": 33793.0,
        "2020 Income per Capita": 37418.0
    },
    {
        "Agency Name": "Doerun Police Department",
        "County": "Colquitt County",
        "Latitude": 31.189758,
        "Longitude": -83.769741,
        "2017 Income per Capita": 32304.0,
        "2018 Income per Capita": 32728.0,
        "2019 Income per Capita": 33793.0,
        "2020 Income per Capita": 37418.0
    },
    {
        "Agency Name": "Norman Park Police Department",
        "County": "Colquitt County",
        "Latitude": 31.189758,
        "Longitude": -83.769741,
        "2017 Income per Capita": 32304.0,
        "2018 Income per Capita": 32728.0,
        "2019 Income per Capita": 33793.0,
        "2020 Income per Capita": 37418.0
    },
    {
        "Agency Name": "Moultrie Police Department",
        "County": "Colquitt County",
        "Latitude": 31.189758,
        "Longitude": -83.769741,
        "2017 Income per Capita": 32304.0,
        "2018 Income per Capita": 32728.0,
        "2019 Income per Capita": 33793.0,
        "2020 Income per Capita": 37418.0
    },
    {
        "Agency Name": "Colquitt  County Sheriff's Office",
        "County": "Colquitt County",
        "Latitude": 31.189758,
        "Longitude": -83.769741,
        "2017 Income per Capita": 32304.0,
        "2018 Income per Capita": 32728.0,
        "2019 Income per Capita": 33793.0,
        "2020 Income per Capita": 37418.0
    },
    {
        "Agency Name": "Omega Police Department",
        "County": "Colquitt; Tift County",
        "Latitude": 31.457003,
        "Longitude": -83.525931,
        "2017 Income per Capita": null,
        "2018 Income per Capita": null,
        "2019 Income per Capita": null,
        "2020 Income per Capita": null
    },
    {
        "Agency Name": "Harlem Police Department",
        "County": "Columbia County",
        "Latitude": 33.550551,
        "Longitude": -82.251361,
        "2017 Income per Capita": 48358.0,
        "2018 Income per Capita": 49844.0,
        "2019 Income per Capita": 51534.0,
        "2020 Income per Capita": 54420.0
    },
    {
        "Agency Name": "Columbia County Sheriff's Office",
        "County": "Columbia County",
        "Latitude": 33.550551,
        "Longitude": -82.251361,
        "2017 Income per Capita": 48358.0,
        "2018 Income per Capita": 49844.0,
        "2019 Income per Capita": 51534.0,
        "2020 Income per Capita": 54420.0
    },
    {
        "Agency Name": "Grovetown Police Department",
        "County": "Columbia County",
        "Latitude": 33.550551,
        "Longitude": -82.251361,
        "2017 Income per Capita": 48358.0,
        "2018 Income per Capita": 49844.0,
        "2019 Income per Capita": 51534.0,
        "2020 Income per Capita": 54420.0
    },
    {
        "Agency Name": "Adel Police Department",
        "County": "Cook County",
        "Latitude": 31.152962,
        "Longitude": -83.429567,
        "2017 Income per Capita": 30891.0,
        "2018 Income per Capita": 32303.0,
        "2019 Income per Capita": 33589.0,
        "2020 Income per Capita": 36301.0
    },
    {
        "Agency Name": "Lenox Police Department",
        "County": "Cook County",
        "Latitude": 31.152962,
        "Longitude": -83.429567,
        "2017 Income per Capita": 30891.0,
        "2018 Income per Capita": 32303.0,
        "2019 Income per Capita": 33589.0,
        "2020 Income per Capita": 36301.0
    },
    {
        "Agency Name": "Sparks Police Department",
        "County": "Cook County",
        "Latitude": 31.152962,
        "Longitude": -83.429567,
        "2017 Income per Capita": 30891.0,
        "2018 Income per Capita": 32303.0,
        "2019 Income per Capita": 33589.0,
        "2020 Income per Capita": 36301.0
    },
    {
        "Agency Name": "Cook County Sheriff's Office",
        "County": "Cook County",
        "Latitude": 31.152962,
        "Longitude": -83.429567,
        "2017 Income per Capita": 30891.0,
        "2018 Income per Capita": 32303.0,
        "2019 Income per Capita": 33589.0,
        "2020 Income per Capita": 36301.0
    },
    {
        "Agency Name": "State Patrol: Newnan",
        "County": "Coweta County",
        "Latitude": 33.35375,
        "Longitude": -84.769226,
        "2017 Income per Capita": 45358.0,
        "2018 Income per Capita": 47395.0,
        "2019 Income per Capita": 49042.0,
        "2020 Income per Capita": 52106.0
    },
    {
        "Agency Name": "Coweta County Sheriff's Office",
        "County": "Coweta County",
        "Latitude": 33.382137,
        "Longitude": -84.78246,
        "2017 Income per Capita": 45358.0,
        "2018 Income per Capita": 47395.0,
        "2019 Income per Capita": 49042.0,
        "2020 Income per Capita": 52106.0
    },
    {
        "Agency Name": "Newnan Police Department",
        "County": "Coweta County",
        "Latitude": 33.352897,
        "Longitude": -84.762138,
        "2017 Income per Capita": 45358.0,
        "2018 Income per Capita": 47395.0,
        "2019 Income per Capita": 49042.0,
        "2020 Income per Capita": 52106.0
    },
    {
        "Agency Name": "Grantville Police Department",
        "County": "Coweta County",
        "Latitude": 33.352897,
        "Longitude": -84.762138,
        "2017 Income per Capita": 45358.0,
        "2018 Income per Capita": 47395.0,
        "2019 Income per Capita": 49042.0,
        "2020 Income per Capita": 52106.0
    },
    {
        "Agency Name": "Senoia Police Department",
        "County": "Coweta County",
        "Latitude": 33.352897,
        "Longitude": -84.762138,
        "2017 Income per Capita": 45358.0,
        "2018 Income per Capita": 47395.0,
        "2019 Income per Capita": 49042.0,
        "2020 Income per Capita": 52106.0
    },
    {
        "Agency Name": "Palmetto Police Department",
        "County": "Coweta; Fulton County",
        "Latitude": 33.790034,
        "Longitude": -84.468182,
        "2017 Income per Capita": null,
        "2018 Income per Capita": null,
        "2019 Income per Capita": null,
        "2020 Income per Capita": null
    },
    {
        "Agency Name": "Roberta Police Department",
        "County": "Crawford County",
        "Latitude": 32.709428,
        "Longitude": -83.979187,
        "2017 Income per Capita": 33368.0,
        "2018 Income per Capita": 33841.0,
        "2019 Income per Capita": 34633.0,
        "2020 Income per Capita": 37563.0
    },
    {
        "Agency Name": "Crawford County Sheriff's Office",
        "County": "Crawford County",
        "Latitude": 32.709428,
        "Longitude": -83.979187,
        "2017 Income per Capita": 33368.0,
        "2018 Income per Capita": 33841.0,
        "2019 Income per Capita": 34633.0,
        "2020 Income per Capita": 37563.0
    },
    {
        "Agency Name": "Crisp County Sheriff's Office",
        "County": "Crisp County",
        "Latitude": 31.914753,
        "Longitude": -83.753338,
        "2017 Income per Capita": 31585.0,
        "2018 Income per Capita": 32341.0,
        "2019 Income per Capita": 34299.0,
        "2020 Income per Capita": 37250.0
    },
    {
        "Agency Name": "State Patrol: Cordele",
        "County": "Crisp County",
        "Latitude": 31.914753,
        "Longitude": -83.753338,
        "2017 Income per Capita": 31585.0,
        "2018 Income per Capita": 32341.0,
        "2019 Income per Capita": 34299.0,
        "2020 Income per Capita": 37250.0
    },
    {
        "Agency Name": "Cordele Police Department",
        "County": "Crisp County",
        "Latitude": 31.973846,
        "Longitude": -83.782745,
        "2017 Income per Capita": 31585.0,
        "2018 Income per Capita": 32341.0,
        "2019 Income per Capita": 34299.0,
        "2020 Income per Capita": 37250.0
    },
    {
        "Agency Name": "Dade County Sheriff's Office",
        "County": "Dade County",
        "Latitude": 34.852424,
        "Longitude": -85.506201,
        "2017 Income per Capita": 33728.0,
        "2018 Income per Capita": 35561.0,
        "2019 Income per Capita": 34992.0,
        "2020 Income per Capita": 37327.0
    },
    {
        "Agency Name": "Trenton Police Department",
        "County": "Dade County",
        "Latitude": 34.852424,
        "Longitude": -85.506201,
        "2017 Income per Capita": 33728.0,
        "2018 Income per Capita": 35561.0,
        "2019 Income per Capita": 34992.0,
        "2020 Income per Capita": 37327.0
    },
    {
        "Agency Name": "Dawson County Sheriff's Office",
        "County": "Dawson County",
        "Latitude": 34.422028,
        "Longitude": -84.12007,
        "2017 Income per Capita": 44208.0,
        "2018 Income per Capita": 45988.0,
        "2019 Income per Capita": 46101.0,
        "2020 Income per Capita": 48170.0
    },
    {
        "Agency Name": "Attapulgus Police Department",
        "County": "Decatur County",
        "Latitude": 30.878091,
        "Longitude": -84.577894,
        "2017 Income per Capita": 33717.0,
        "2018 Income per Capita": 35527.0,
        "2019 Income per Capita": 37197.0,
        "2020 Income per Capita": 40879.0
    },
    {
        "Agency Name": "Decatur County Schools",
        "County": "Decatur County",
        "Latitude": 30.897661,
        "Longitude": -84.55789,
        "2017 Income per Capita": 33717.0,
        "2018 Income per Capita": 35527.0,
        "2019 Income per Capita": 37197.0,
        "2020 Income per Capita": 40879.0
    },
    {
        "Agency Name": "Bainbridge State College",
        "County": "Decatur County",
        "Latitude": 30.901915,
        "Longitude": -84.52778,
        "2017 Income per Capita": 33717.0,
        "2018 Income per Capita": 35527.0,
        "2019 Income per Capita": 37197.0,
        "2020 Income per Capita": 40879.0
    },
    {
        "Agency Name": "Bainbridge Police Department",
        "County": "Decatur County",
        "Latitude": 30.878091,
        "Longitude": -84.577894,
        "2017 Income per Capita": 33717.0,
        "2018 Income per Capita": 35527.0,
        "2019 Income per Capita": 37197.0,
        "2020 Income per Capita": 40879.0
    },
    {
        "Agency Name": "Decatur County Sheriff's Office",
        "County": "Decatur County",
        "Latitude": 30.908264,
        "Longitude": -84.59721,
        "2017 Income per Capita": 33717.0,
        "2018 Income per Capita": 35527.0,
        "2019 Income per Capita": 37197.0,
        "2020 Income per Capita": 40879.0
    },
    {
        "Agency Name": "Agnes Scott College",
        "County": "Dekalb County",
        "Latitude": 33.769936,
        "Longitude": -84.29559,
        "2017 Income per Capita": null,
        "2018 Income per Capita": null,
        "2019 Income per Capita": null,
        "2020 Income per Capita": null
    },
    {
        "Agency Name": "DeKalb County School System",
        "County": "Dekalb County",
        "Latitude": 33.800564,
        "Longitude": -84.20196,
        "2017 Income per Capita": null,
        "2018 Income per Capita": null,
        "2019 Income per Capita": null,
        "2020 Income per Capita": null
    },
    {
        "Agency Name": "State Patrol: Metropolitan Traffic Unit, Atlanta",
        "County": "Dekalb County",
        "Latitude": 33.77505,
        "Longitude": -84.520905,
        "2017 Income per Capita": null,
        "2018 Income per Capita": null,
        "2019 Income per Capita": null,
        "2020 Income per Capita": null
    },
    {
        "Agency Name": "Dunwoody  Police Department",
        "County": "Dekalb County",
        "Latitude": 33.770661,
        "Longitude": -84.226343,
        "2017 Income per Capita": null,
        "2018 Income per Capita": null,
        "2019 Income per Capita": null,
        "2020 Income per Capita": null
    },
    {
        "Agency Name": "Decatur Police Department",
        "County": "Dekalb County",
        "Latitude": 33.773537,
        "Longitude": -84.30166,
        "2017 Income per Capita": null,
        "2018 Income per Capita": null,
        "2019 Income per Capita": null,
        "2020 Income per Capita": null
    },
    {
        "Agency Name": "Chamblee Police Department",
        "County": "Dekalb County",
        "Latitude": 33.895386,
        "Longitude": -84.29837,
        "2017 Income per Capita": null,
        "2018 Income per Capita": null,
        "2019 Income per Capita": null,
        "2020 Income per Capita": null
    },
    {
        "Agency Name": "Clarkston Police Department",
        "County": "Dekalb County",
        "Latitude": 33.809055,
        "Longitude": -84.23962,
        "2017 Income per Capita": null,
        "2018 Income per Capita": null,
        "2019 Income per Capita": null,
        "2020 Income per Capita": null
    },
    {
        "Agency Name": "Doraville Police Department",
        "County": "Dekalb County",
        "Latitude": 33.90096,
        "Longitude": -84.27897,
        "2017 Income per Capita": null,
        "2018 Income per Capita": null,
        "2019 Income per Capita": null,
        "2020 Income per Capita": null
    },
    {
        "Agency Name": "DeKalb County Sheriff's Office",
        "County": "Dekalb County",
        "Latitude": 33.774567,
        "Longitude": -84.29654,
        "2017 Income per Capita": null,
        "2018 Income per Capita": null,
        "2019 Income per Capita": null,
        "2020 Income per Capita": null
    },
    {
        "Agency Name": "Stone Mountain Police Department",
        "County": "Dekalb County",
        "Latitude": 33.80639,
        "Longitude": -84.170364,
        "2017 Income per Capita": null,
        "2018 Income per Capita": null,
        "2019 Income per Capita": null,
        "2020 Income per Capita": null
    },
    {
        "Agency Name": "Lithonia Police Department",
        "County": "Dekalb County",
        "Latitude": 33.710865,
        "Longitude": -84.10791,
        "2017 Income per Capita": null,
        "2018 Income per Capita": null,
        "2019 Income per Capita": null,
        "2020 Income per Capita": null
    },
    {
        "Agency Name": "DeKalb County Police Department",
        "County": "Dekalb County",
        "Latitude": 33.77625,
        "Longitude": -84.24072,
        "2017 Income per Capita": null,
        "2018 Income per Capita": null,
        "2019 Income per Capita": null,
        "2020 Income per Capita": null
    },
    {
        "Agency Name": "Pine Lake Police Department",
        "County": "Dekalb County",
        "Latitude": 33.770661,
        "Longitude": -84.226343,
        "2017 Income per Capita": null,
        "2018 Income per Capita": null,
        "2019 Income per Capita": null,
        "2020 Income per Capita": null
    },
    {
        "Agency Name": "Avondale Estates Police Department",
        "County": "Dekalb County",
        "Latitude": 33.775436,
        "Longitude": -84.26623,
        "2017 Income per Capita": null,
        "2018 Income per Capita": null,
        "2019 Income per Capita": null,
        "2020 Income per Capita": null
    },
    {
        "Agency Name": "Stone Mountain Park Police",
        "County": "Dekalb County",
        "Latitude": 33.770661,
        "Longitude": -84.226343,
        "2017 Income per Capita": null,
        "2018 Income per Capita": null,
        "2019 Income per Capita": null,
        "2020 Income per Capita": null
    },
    {
        "Agency Name": "Atlanta Police Department",
        "County": "Dekalb; Fulton County",
        "Latitude": 33.74819,
        "Longitude": -84.39517,
        "2017 Income per Capita": null,
        "2018 Income per Capita": null,
        "2019 Income per Capita": null,
        "2020 Income per Capita": null
    },
    {
        "Agency Name": "Dodge County Sheriff's Office",
        "County": "Dodge County",
        "Latitude": 32.200294,
        "Longitude": -83.17538,
        "2017 Income per Capita": 29484.0,
        "2018 Income per Capita": 30026.0,
        "2019 Income per Capita": 31116.0,
        "2020 Income per Capita": 33419.0
    },
    {
        "Agency Name": "Eastman Police Department",
        "County": "Dodge County",
        "Latitude": 32.160235,
        "Longitude": -83.156241,
        "2017 Income per Capita": 29484.0,
        "2018 Income per Capita": 30026.0,
        "2019 Income per Capita": 31116.0,
        "2020 Income per Capita": 33419.0
    },
    {
        "Agency Name": "Vienna Police Department",
        "County": "Dooly County",
        "Latitude": 32.151995,
        "Longitude": -83.807167,
        "2017 Income per Capita": 29914.0,
        "2018 Income per Capita": 29886.0,
        "2019 Income per Capita": 32995.0,
        "2020 Income per Capita": 34582.0
    },
    {
        "Agency Name": "Dooly County Sheriff's Office",
        "County": "Dooly County",
        "Latitude": 32.151995,
        "Longitude": -83.807167,
        "2017 Income per Capita": 29914.0,
        "2018 Income per Capita": 29886.0,
        "2019 Income per Capita": 32995.0,
        "2020 Income per Capita": 34582.0
    },
    {
        "Agency Name": "Dougherty County Police Department",
        "County": "Dougherty County",
        "Latitude": 31.532588,
        "Longitude": -84.20904,
        "2017 Income per Capita": 33580.0,
        "2018 Income per Capita": 34246.0,
        "2019 Income per Capita": 35951.0,
        "2020 Income per Capita": 40161.0
    },
    {
        "Agency Name": "State Patrol: Albany",
        "County": "Dougherty County",
        "Latitude": 31.537027,
        "Longitude": -84.11519,
        "2017 Income per Capita": 33580.0,
        "2018 Income per Capita": 34246.0,
        "2019 Income per Capita": 35951.0,
        "2020 Income per Capita": 40161.0
    },
    {
        "Agency Name": "Albany Police Department",
        "County": "Dougherty County",
        "Latitude": 31.532588,
        "Longitude": -84.20904,
        "2017 Income per Capita": 33580.0,
        "2018 Income per Capita": 34246.0,
        "2019 Income per Capita": 35951.0,
        "2020 Income per Capita": 40161.0
    },
    {
        "Agency Name": "Dougherty County Board of Education",
        "County": "Dougherty County",
        "Latitude": 31.532588,
        "Longitude": -84.20904,
        "2017 Income per Capita": 33580.0,
        "2018 Income per Capita": 34246.0,
        "2019 Income per Capita": 35951.0,
        "2020 Income per Capita": 40161.0
    },
    {
        "Agency Name": "Dougherty County Sheriff's Office",
        "County": "Dougherty County",
        "Latitude": 31.532588,
        "Longitude": -84.20904,
        "2017 Income per Capita": 33580.0,
        "2018 Income per Capita": 34246.0,
        "2019 Income per Capita": 35951.0,
        "2020 Income per Capita": 40161.0
    },
    {
        "Agency Name": "Albany State University",
        "County": "Dougherty County",
        "Latitude": 31.572027,
        "Longitude": -84.144394,
        "2017 Income per Capita": 33580.0,
        "2018 Income per Capita": 34246.0,
        "2019 Income per Capita": 35951.0,
        "2020 Income per Capita": 40161.0
    },
    {
        "Agency Name": "Albany-Dougherty Metropolitan Drug Squad",
        "County": "Dougherty County",
        "Latitude": 31.532588,
        "Longitude": -84.20904,
        "2017 Income per Capita": 33580.0,
        "2018 Income per Capita": 34246.0,
        "2019 Income per Capita": 35951.0,
        "2020 Income per Capita": 40161.0
    },
    {
        "Agency Name": "Douglas County Sheriff's Office",
        "County": "Douglas County",
        "Latitude": 33.748375,
        "Longitude": -84.7535,
        "2017 Income per Capita": 34199.0,
        "2018 Income per Capita": 35406.0,
        "2019 Income per Capita": 36772.0,
        "2020 Income per Capita": 40264.0
    },
    {
        "Agency Name": "Douglasville Police Department",
        "County": "Douglas County",
        "Latitude": 33.699317,
        "Longitude": -84.765944,
        "2017 Income per Capita": 34199.0,
        "2018 Income per Capita": 35406.0,
        "2019 Income per Capita": 36772.0,
        "2020 Income per Capita": 40264.0
    },
    {
        "Agency Name": "Villa Rica Police Department",
        "County": "Douglas; Carroll County",
        "Latitude": 33.582237,
        "Longitude": -85.080527,
        "2017 Income per Capita": null,
        "2018 Income per Capita": null,
        "2019 Income per Capita": null,
        "2020 Income per Capita": null
    },
    {
        "Agency Name": "Austell Police Department",
        "County": "Douglas; Cobb County",
        "Latitude": 33.93994,
        "Longitude": -84.574166,
        "2017 Income per Capita": null,
        "2018 Income per Capita": null,
        "2019 Income per Capita": null,
        "2020 Income per Capita": null
    },
    {
        "Agency Name": "Early County Sheriff's Office",
        "County": "Early County",
        "Latitude": 31.324191,
        "Longitude": -84.906723,
        "2017 Income per Capita": 35181.0,
        "2018 Income per Capita": 35805.0,
        "2019 Income per Capita": 39225.0,
        "2020 Income per Capita": 42889.0
    },
    {
        "Agency Name": "Blakely Police Department",
        "County": "Early County",
        "Latitude": 31.324191,
        "Longitude": -84.906723,
        "2017 Income per Capita": 35181.0,
        "2018 Income per Capita": 35805.0,
        "2019 Income per Capita": 39225.0,
        "2020 Income per Capita": 42889.0
    },
    {
        "Agency Name": "Arlington Police Department",
        "County": "Early; Calhoun County",
        "Latitude": 31.521279,
        "Longitude": -84.62629,
        "2017 Income per Capita": null,
        "2018 Income per Capita": null,
        "2019 Income per Capita": null,
        "2020 Income per Capita": null
    },
    {
        "Agency Name": "Echols County Sheriff's Office",
        "County": "Echols County",
        "Latitude": 30.7085,
        "Longitude": -82.836132,
        "2017 Income per Capita": 27087.0,
        "2018 Income per Capita": 28002.0,
        "2019 Income per Capita": 28417.0,
        "2020 Income per Capita": 31945.0
    },
    {
        "Agency Name": "Rincon Police Department",
        "County": "Effingham County",
        "Latitude": 32.361711,
        "Longitude": -81.343337,
        "2017 Income per Capita": 40521.0,
        "2018 Income per Capita": 41839.0,
        "2019 Income per Capita": 41988.0,
        "2020 Income per Capita": 45069.0
    },
    {
        "Agency Name": "Guyton Police Department",
        "County": "Effingham County",
        "Latitude": 32.361711,
        "Longitude": -81.343337,
        "2017 Income per Capita": 40521.0,
        "2018 Income per Capita": 41839.0,
        "2019 Income per Capita": 41988.0,
        "2020 Income per Capita": 45069.0
    },
    {
        "Agency Name": "Springfield Police Department",
        "County": "Effingham County",
        "Latitude": 32.361711,
        "Longitude": -81.343337,
        "2017 Income per Capita": 40521.0,
        "2018 Income per Capita": 41839.0,
        "2019 Income per Capita": 41988.0,
        "2020 Income per Capita": 45069.0
    },
    {
        "Agency Name": "Effingham County Sheriff's Office",
        "County": "Effingham County",
        "Latitude": 32.361711,
        "Longitude": -81.343337,
        "2017 Income per Capita": 40521.0,
        "2018 Income per Capita": 41839.0,
        "2019 Income per Capita": 41988.0,
        "2020 Income per Capita": 45069.0
    },
    {
        "Agency Name": "Elberton Police Department",
        "County": "Elbert County",
        "Latitude": 34.116486,
        "Longitude": -82.841815,
        "2017 Income per Capita": 35129.0,
        "2018 Income per Capita": 35669.0,
        "2019 Income per Capita": 35899.0,
        "2020 Income per Capita": 38414.0
    },
    {
        "Agency Name": "Elbert County Sheriff's Office",
        "County": "Elbert County",
        "Latitude": 34.116486,
        "Longitude": -82.841815,
        "2017 Income per Capita": 35129.0,
        "2018 Income per Capita": 35669.0,
        "2019 Income per Capita": 35899.0,
        "2020 Income per Capita": 38414.0
    },
    {
        "Agency Name": "State Patrol: Swainsboro",
        "County": "Emanuel County",
        "Latitude": 32.5911,
        "Longitude": -82.299763,
        "2017 Income per Capita": 31948.0,
        "2018 Income per Capita": 31778.0,
        "2019 Income per Capita": 33463.0,
        "2020 Income per Capita": 37678.0
    },
    {
        "Agency Name": "Twin City Police Department",
        "County": "Emanuel County",
        "Latitude": 32.5911,
        "Longitude": -82.299763,
        "2017 Income per Capita": 31948.0,
        "2018 Income per Capita": 31778.0,
        "2019 Income per Capita": 33463.0,
        "2020 Income per Capita": 37678.0
    },
    {
        "Agency Name": "Swainsboro Police Department",
        "County": "Emanuel County",
        "Latitude": 32.5911,
        "Longitude": -82.299763,
        "2017 Income per Capita": 31948.0,
        "2018 Income per Capita": 31778.0,
        "2019 Income per Capita": 33463.0,
        "2020 Income per Capita": 37678.0
    },
    {
        "Agency Name": "Emanuel County Sheriff's Office",
        "County": "Emanuel County",
        "Latitude": 32.5911,
        "Longitude": -82.299763,
        "2017 Income per Capita": 31948.0,
        "2018 Income per Capita": 31778.0,
        "2019 Income per Capita": 33463.0,
        "2020 Income per Capita": 37678.0
    },
    {
        "Agency Name": "Oak Park Police Department",
        "County": "Emanuel County",
        "Latitude": 32.5911,
        "Longitude": -82.299763,
        "2017 Income per Capita": 31948.0,
        "2018 Income per Capita": 31778.0,
        "2019 Income per Capita": 33463.0,
        "2020 Income per Capita": 37678.0
    },
    {
        "Agency Name": "Stillmore Police Department",
        "County": "Emanuel County",
        "Latitude": 32.5911,
        "Longitude": -82.299763,
        "2017 Income per Capita": 31948.0,
        "2018 Income per Capita": 31778.0,
        "2019 Income per Capita": 33463.0,
        "2020 Income per Capita": 37678.0
    },
    {
        "Agency Name": "Adrian Police Department",
        "County": "Emanuel; Johnson County",
        "Latitude": 32.689831,
        "Longitude": -82.661354,
        "2017 Income per Capita": null,
        "2018 Income per Capita": null,
        "2019 Income per Capita": null,
        "2020 Income per Capita": null
    },
    {
        "Agency Name": "Hagan Police Department",
        "County": "Evans County",
        "Latitude": 32.151902,
        "Longitude": -81.887618,
        "2017 Income per Capita": 33343.0,
        "2018 Income per Capita": 33769.0,
        "2019 Income per Capita": 34065.0,
        "2020 Income per Capita": 37408.0
    },
    {
        "Agency Name": "Claxton Police Department",
        "County": "Evans County",
        "Latitude": 32.151902,
        "Longitude": -81.887618,
        "2017 Income per Capita": 33343.0,
        "2018 Income per Capita": 33769.0,
        "2019 Income per Capita": 34065.0,
        "2020 Income per Capita": 37408.0
    },
    {
        "Agency Name": "Evans County Sheriff's Office",
        "County": "Evans County",
        "Latitude": 32.151902,
        "Longitude": -81.887618,
        "2017 Income per Capita": 33343.0,
        "2018 Income per Capita": 33769.0,
        "2019 Income per Capita": 34065.0,
        "2020 Income per Capita": 37408.0
    },
    {
        "Agency Name": "Fannin County Sheriff's Office",
        "County": "Fannin County",
        "Latitude": 34.864494,
        "Longitude": -84.32744,
        "2017 Income per Capita": 35178.0,
        "2018 Income per Capita": 36459.0,
        "2019 Income per Capita": 38128.0,
        "2020 Income per Capita": 39796.0
    },
    {
        "Agency Name": "State Patrol: Blue Ridge",
        "County": "Fannin County",
        "Latitude": 34.866497,
        "Longitude": -84.31744,
        "2017 Income per Capita": 35178.0,
        "2018 Income per Capita": 36459.0,
        "2019 Income per Capita": 38128.0,
        "2020 Income per Capita": 39796.0
    },
    {
        "Agency Name": "Blue Ridge Police Department",
        "County": "Fannin County",
        "Latitude": 34.866226,
        "Longitude": -84.32594,
        "2017 Income per Capita": 35178.0,
        "2018 Income per Capita": 36459.0,
        "2019 Income per Capita": 38128.0,
        "2020 Income per Capita": 39796.0
    },
    {
        "Agency Name": "McCaysville Police Department",
        "County": "Fannin County",
        "Latitude": 34.866497,
        "Longitude": -84.31744,
        "2017 Income per Capita": 35178.0,
        "2018 Income per Capita": 36459.0,
        "2019 Income per Capita": 38128.0,
        "2020 Income per Capita": 39796.0
    },
    {
        "Agency Name": "Fayette County Sheriff's Office",
        "County": "Fayette County",
        "Latitude": 33.446476,
        "Longitude": -84.45227,
        "2017 Income per Capita": 61841.0,
        "2018 Income per Capita": 66106.0,
        "2019 Income per Capita": 68696.0,
        "2020 Income per Capita": 71384.0
    },
    {
        "Agency Name": "Fayette County Marshal",
        "County": "Fayette County",
        "Latitude": 33.447628,
        "Longitude": -84.462875,
        "2017 Income per Capita": 61841.0,
        "2018 Income per Capita": 66106.0,
        "2019 Income per Capita": 68696.0,
        "2020 Income per Capita": 71384.0
    },
    {
        "Agency Name": "Fayetteville Police Department",
        "County": "Fayette County",
        "Latitude": 33.412717,
        "Longitude": -84.493941,
        "2017 Income per Capita": 61841.0,
        "2018 Income per Capita": 66106.0,
        "2019 Income per Capita": 68696.0,
        "2020 Income per Capita": 71384.0
    },
    {
        "Agency Name": "Tyrone Police Department",
        "County": "Fayette County",
        "Latitude": 33.478733,
        "Longitude": -84.594215,
        "2017 Income per Capita": 61841.0,
        "2018 Income per Capita": 66106.0,
        "2019 Income per Capita": 68696.0,
        "2020 Income per Capita": 71384.0
    },
    {
        "Agency Name": "Peachtree City Police Department",
        "County": "Fayette County",
        "Latitude": 33.412717,
        "Longitude": -84.493941,
        "2017 Income per Capita": 61841.0,
        "2018 Income per Capita": 66106.0,
        "2019 Income per Capita": 68696.0,
        "2020 Income per Capita": 71384.0
    },
    {
        "Agency Name": "Floyd County Police Department",
        "County": "Floyd County",
        "Latitude": 34.169235,
        "Longitude": -85.21126,
        "2017 Income per Capita": 36491.0,
        "2018 Income per Capita": 37593.0,
        "2019 Income per Capita": 38630.0,
        "2020 Income per Capita": 41238.0
    },
    {
        "Agency Name": "Rome Police Department",
        "County": "Floyd County",
        "Latitude": 34.169235,
        "Longitude": -85.21126,
        "2017 Income per Capita": 36491.0,
        "2018 Income per Capita": 37593.0,
        "2019 Income per Capita": 38630.0,
        "2020 Income per Capita": 41238.0
    },
    {
        "Agency Name": "Floyd County Sheriff's Office",
        "County": "Floyd County",
        "Latitude": 34.280457,
        "Longitude": -85.1429,
        "2017 Income per Capita": 36491.0,
        "2018 Income per Capita": 37593.0,
        "2019 Income per Capita": 38630.0,
        "2020 Income per Capita": 41238.0
    },
    {
        "Agency Name": "Cave Spring Police Department",
        "County": "Floyd County",
        "Latitude": 34.263677,
        "Longitude": -85.21373,
        "2017 Income per Capita": 36491.0,
        "2018 Income per Capita": 37593.0,
        "2019 Income per Capita": 38630.0,
        "2020 Income per Capita": 41238.0
    },
    {
        "Agency Name": "State Patrol: Rome",
        "County": "Floyd County",
        "Latitude": 34.31876,
        "Longitude": -85.17213,
        "2017 Income per Capita": 36491.0,
        "2018 Income per Capita": 37593.0,
        "2019 Income per Capita": 38630.0,
        "2020 Income per Capita": 41238.0
    },
    {
        "Agency Name": "Forsyth County Sheriff's Office",
        "County": "Forsyth County",
        "Latitude": 34.225143,
        "Longitude": -84.127435,
        "2017 Income per Capita": 61970.0,
        "2018 Income per Capita": 63462.0,
        "2019 Income per Capita": 64919.0,
        "2020 Income per Capita": 67859.0
    },
    {
        "Agency Name": "Forsyth County Fire Investigation Unit",
        "County": "Forsyth County",
        "Latitude": 34.225143,
        "Longitude": -84.127435,
        "2017 Income per Capita": 61970.0,
        "2018 Income per Capita": 63462.0,
        "2019 Income per Capita": 64919.0,
        "2020 Income per Capita": 67859.0
    },
    {
        "Agency Name": "Cumming Police Department",
        "County": "Forsyth County",
        "Latitude": 34.204327,
        "Longitude": -84.13951,
        "2017 Income per Capita": 61970.0,
        "2018 Income per Capita": 63462.0,
        "2019 Income per Capita": 64919.0,
        "2020 Income per Capita": 67859.0
    },
    {
        "Agency Name": "Lavonia Police Department",
        "County": "Franklin County",
        "Latitude": 34.375155,
        "Longitude": -83.22729,
        "2017 Income per Capita": 34951.0,
        "2018 Income per Capita": 35349.0,
        "2019 Income per Capita": 34783.0,
        "2020 Income per Capita": 35134.0
    },
    {
        "Agency Name": "Franklin County Sheriff's Office",
        "County": "Franklin County",
        "Latitude": 34.375155,
        "Longitude": -83.22729,
        "2017 Income per Capita": 34951.0,
        "2018 Income per Capita": 35349.0,
        "2019 Income per Capita": 34783.0,
        "2020 Income per Capita": 35134.0
    },
    {
        "Agency Name": "Franklin Springs Police Department",
        "County": "Franklin County",
        "Latitude": 34.375155,
        "Longitude": -83.22729,
        "2017 Income per Capita": 34951.0,
        "2018 Income per Capita": 35349.0,
        "2019 Income per Capita": 34783.0,
        "2020 Income per Capita": 35134.0
    },
    {
        "Agency Name": "State Patrol: Hapeville",
        "County": "Fulton County",
        "Latitude": 33.790034,
        "Longitude": -84.468182,
        "2017 Income per Capita": 82345.0,
        "2018 Income per Capita": 87395.0,
        "2019 Income per Capita": 92961.0,
        "2020 Income per Capita": 95683.0
    },
    {
        "Agency Name": "Roswell Police Department",
        "County": "Fulton County",
        "Latitude": 34.021626,
        "Longitude": -84.35973,
        "2017 Income per Capita": 82345.0,
        "2018 Income per Capita": 87395.0,
        "2019 Income per Capita": 92961.0,
        "2020 Income per Capita": 95683.0
    },
    {
        "Agency Name": "Morris Brown College",
        "County": "Fulton County",
        "Latitude": 33.75472,
        "Longitude": -84.40874,
        "2017 Income per Capita": 82345.0,
        "2018 Income per Capita": 87395.0,
        "2019 Income per Capita": 92961.0,
        "2020 Income per Capita": 95683.0
    },
    {
        "Agency Name": "Morehouse School of Medicine",
        "County": "Fulton County",
        "Latitude": 33.743107,
        "Longitude": -84.41023,
        "2017 Income per Capita": 82345.0,
        "2018 Income per Capita": 87395.0,
        "2019 Income per Capita": 92961.0,
        "2020 Income per Capita": 95683.0
    },
    {
        "Agency Name": "Atlanta Metropolitan State College",
        "County": "Fulton County",
        "Latitude": 33.70959,
        "Longitude": -84.40797,
        "2017 Income per Capita": 82345.0,
        "2018 Income per Capita": 87395.0,
        "2019 Income per Capita": 92961.0,
        "2020 Income per Capita": 95683.0
    },
    {
        "Agency Name": "Fulton County School System",
        "County": "Fulton County",
        "Latitude": 33.681316,
        "Longitude": -84.41437,
        "2017 Income per Capita": 82345.0,
        "2018 Income per Capita": 87395.0,
        "2019 Income per Capita": 92961.0,
        "2020 Income per Capita": 95683.0
    },
    {
        "Agency Name": "Fulton County Marshal",
        "County": "Fulton County",
        "Latitude": 33.752655,
        "Longitude": -84.38997,
        "2017 Income per Capita": 82345.0,
        "2018 Income per Capita": 87395.0,
        "2019 Income per Capita": 92961.0,
        "2020 Income per Capita": 95683.0
    },
    {
        "Agency Name": "Georgia State University",
        "County": "Fulton County",
        "Latitude": 33.754486,
        "Longitude": -84.38908,
        "2017 Income per Capita": 82345.0,
        "2018 Income per Capita": 87395.0,
        "2019 Income per Capita": 92961.0,
        "2020 Income per Capita": 95683.0
    },
    {
        "Agency Name": "Department of Transportation Office of Investigations",
        "County": "Fulton County",
        "Latitude": 33.746944,
        "Longitude": -84.39647,
        "2017 Income per Capita": 82345.0,
        "2018 Income per Capita": 87395.0,
        "2019 Income per Capita": 92961.0,
        "2020 Income per Capita": 95683.0
    },
    {
        "Agency Name": "Clark Atlanta University",
        "County": "Fulton County",
        "Latitude": 33.747498,
        "Longitude": -84.41283,
        "2017 Income per Capita": 82345.0,
        "2018 Income per Capita": 87395.0,
        "2019 Income per Capita": 92961.0,
        "2020 Income per Capita": 95683.0
    },
    {
        "Agency Name": "Georgia Institute of Technology",
        "County": "Fulton County",
        "Latitude": 33.779533,
        "Longitude": -84.40235,
        "2017 Income per Capita": 82345.0,
        "2018 Income per Capita": 87395.0,
        "2019 Income per Capita": 92961.0,
        "2020 Income per Capita": 95683.0
    },
    {
        "Agency Name": "Alpharetta Police Department",
        "County": "Fulton County",
        "Latitude": 33.790034,
        "Longitude": -84.468182,
        "2017 Income per Capita": 82345.0,
        "2018 Income per Capita": 87395.0,
        "2019 Income per Capita": 92961.0,
        "2020 Income per Capita": 95683.0
    },
    {
        "Agency Name": "Fairburn Police Department",
        "County": "Fulton County",
        "Latitude": 33.790034,
        "Longitude": -84.468182,
        "2017 Income per Capita": 82345.0,
        "2018 Income per Capita": 87395.0,
        "2019 Income per Capita": 92961.0,
        "2020 Income per Capita": 95683.0
    },
    {
        "Agency Name": "Fulton County Police Department",
        "County": "Fulton County",
        "Latitude": 33.751095,
        "Longitude": -84.39289,
        "2017 Income per Capita": 82345.0,
        "2018 Income per Capita": 87395.0,
        "2019 Income per Capita": 92961.0,
        "2020 Income per Capita": 95683.0
    },
    {
        "Agency Name": "Morehouse College",
        "County": "Fulton County",
        "Latitude": 33.790034,
        "Longitude": -84.468182,
        "2017 Income per Capita": 82345.0,
        "2018 Income per Capita": 87395.0,
        "2019 Income per Capita": 92961.0,
        "2020 Income per Capita": 95683.0
    },
    {
        "Agency Name": "Hapeville Police Department",
        "County": "Fulton County",
        "Latitude": 33.65863,
        "Longitude": -84.4165,
        "2017 Income per Capita": 82345.0,
        "2018 Income per Capita": 87395.0,
        "2019 Income per Capita": 92961.0,
        "2020 Income per Capita": 95683.0
    },
    {
        "Agency Name": "Milton Police Department",
        "County": "Fulton County",
        "Latitude": 34.10218,
        "Longitude": -84.26602,
        "2017 Income per Capita": 82345.0,
        "2018 Income per Capita": 87395.0,
        "2019 Income per Capita": 92961.0,
        "2020 Income per Capita": 95683.0
    },
    {
        "Agency Name": "East Point Police Department",
        "County": "Fulton County",
        "Latitude": 33.681007,
        "Longitude": -84.44159,
        "2017 Income per Capita": 82345.0,
        "2018 Income per Capita": 87395.0,
        "2019 Income per Capita": 92961.0,
        "2020 Income per Capita": 95683.0
    },
    {
        "Agency Name": "Fulton County Sheriff's Office",
        "County": "Fulton County",
        "Latitude": 33.75036,
        "Longitude": -84.39012,
        "2017 Income per Capita": 82345.0,
        "2018 Income per Capita": 87395.0,
        "2019 Income per Capita": 92961.0,
        "2020 Income per Capita": 95683.0
    },
    {
        "Agency Name": "Sandy Springs Police Department",
        "County": "Fulton County",
        "Latitude": 33.925224,
        "Longitude": -84.359856,
        "2017 Income per Capita": 82345.0,
        "2018 Income per Capita": 87395.0,
        "2019 Income per Capita": 92961.0,
        "2020 Income per Capita": 95683.0
    },
    {
        "Agency Name": "Chattahoochee Hills Police Department",
        "County": "Fulton County",
        "Latitude": 33.579945,
        "Longitude": -84.76857,
        "2017 Income per Capita": 82345.0,
        "2018 Income per Capita": 87395.0,
        "2019 Income per Capita": 92961.0,
        "2020 Income per Capita": 95683.0
    },
    {
        "Agency Name": "Union City Police Department",
        "County": "Fulton County",
        "Latitude": 33.57888,
        "Longitude": -84.551994,
        "2017 Income per Capita": 82345.0,
        "2018 Income per Capita": 87395.0,
        "2019 Income per Capita": 92961.0,
        "2020 Income per Capita": 95683.0
    },
    {
        "Agency Name": "Johns Creek Police Department",
        "County": "Fulton County",
        "Latitude": 33.790034,
        "Longitude": -84.468182,
        "2017 Income per Capita": 82345.0,
        "2018 Income per Capita": 87395.0,
        "2019 Income per Capita": 92961.0,
        "2020 Income per Capita": 95683.0
    },
    {
        "Agency Name": "Georgia World Congress",
        "County": "Fulton County",
        "Latitude": 33.759632,
        "Longitude": -84.382416,
        "2017 Income per Capita": 82345.0,
        "2018 Income per Capita": 87395.0,
        "2019 Income per Capita": 92961.0,
        "2020 Income per Capita": 95683.0
    },
    {
        "Agency Name": "Atlanta Public Schools",
        "County": "Fulton County",
        "Latitude": 33.748756,
        "Longitude": -84.391945,
        "2017 Income per Capita": 82345.0,
        "2018 Income per Capita": 87395.0,
        "2019 Income per Capita": 92961.0,
        "2020 Income per Capita": 95683.0
    },
    {
        "Agency Name": "Metropolitan Atlanta Rapid Transit Authority",
        "County": "Fulton County",
        "Latitude": 33.821636,
        "Longitude": -84.367455,
        "2017 Income per Capita": 82345.0,
        "2018 Income per Capita": 87395.0,
        "2019 Income per Capita": 92961.0,
        "2020 Income per Capita": 95683.0
    },
    {
        "Agency Name": "Ellijay Police Department",
        "County": "Gilmer County",
        "Latitude": 34.690541,
        "Longitude": -84.453984,
        "2017 Income per Capita": 34342.0,
        "2018 Income per Capita": 35252.0,
        "2019 Income per Capita": 35979.0,
        "2020 Income per Capita": 37542.0
    },
    {
        "Agency Name": "Gilmer County Sheriff's Office",
        "County": "Gilmer County",
        "Latitude": 34.695786,
        "Longitude": -84.483925,
        "2017 Income per Capita": 34342.0,
        "2018 Income per Capita": 35252.0,
        "2019 Income per Capita": 35979.0,
        "2020 Income per Capita": 37542.0
    },
    {
        "Agency Name": "East Ellijay Police Department",
        "County": "Gilmer County",
        "Latitude": 34.690541,
        "Longitude": -84.453984,
        "2017 Income per Capita": 34342.0,
        "2018 Income per Capita": 35252.0,
        "2019 Income per Capita": 35979.0,
        "2020 Income per Capita": 37542.0
    },
    {
        "Agency Name": "Glascock County Sheriff's Office",
        "County": "Glascock County",
        "Latitude": 33.227491,
        "Longitude": -82.606913,
        "2017 Income per Capita": 32548.0,
        "2018 Income per Capita": 32979.0,
        "2019 Income per Capita": 34576.0,
        "2020 Income per Capita": 36615.0
    },
    {
        "Agency Name": "College of Coastal Georgia",
        "County": "Glynn County",
        "Latitude": 31.212746,
        "Longitude": -81.496517,
        "2017 Income per Capita": 44266.0,
        "2018 Income per Capita": 46614.0,
        "2019 Income per Capita": 47795.0,
        "2020 Income per Capita": 50480.0
    },
    {
        "Agency Name": "Glynn County School System",
        "County": "Glynn County",
        "Latitude": 31.212746,
        "Longitude": -81.496517,
        "2017 Income per Capita": 44266.0,
        "2018 Income per Capita": 46614.0,
        "2019 Income per Capita": 47795.0,
        "2020 Income per Capita": 50480.0
    },
    {
        "Agency Name": "Brunswick Police Department",
        "County": "Glynn County",
        "Latitude": 31.146036,
        "Longitude": -81.49548,
        "2017 Income per Capita": 44266.0,
        "2018 Income per Capita": 46614.0,
        "2019 Income per Capita": 47795.0,
        "2020 Income per Capita": 50480.0
    },
    {
        "Agency Name": "Glynn County Sheriff's Office",
        "County": "Glynn County",
        "Latitude": 31.212746,
        "Longitude": -81.496517,
        "2017 Income per Capita": 44266.0,
        "2018 Income per Capita": 46614.0,
        "2019 Income per Capita": 47795.0,
        "2020 Income per Capita": 50480.0
    },
    {
        "Agency Name": "Glynn County Police Department",
        "County": "Glynn County",
        "Latitude": 31.212746,
        "Longitude": -81.496517,
        "2017 Income per Capita": 44266.0,
        "2018 Income per Capita": 46614.0,
        "2019 Income per Capita": 47795.0,
        "2020 Income per Capita": 50480.0
    },
    {
        "Agency Name": "Gordon County Sheriff's Office",
        "County": "Gordon County",
        "Latitude": 34.509667,
        "Longitude": -84.873862,
        "2017 Income per Capita": 35831.0,
        "2018 Income per Capita": 34849.0,
        "2019 Income per Capita": 35882.0,
        "2020 Income per Capita": 37759.0
    },
    {
        "Agency Name": "State Patrol: Calhoun",
        "County": "Gordon County",
        "Latitude": 34.460278,
        "Longitude": -84.91662,
        "2017 Income per Capita": 35831.0,
        "2018 Income per Capita": 34849.0,
        "2019 Income per Capita": 35882.0,
        "2020 Income per Capita": 37759.0
    },
    {
        "Agency Name": "Calhoun Police Department",
        "County": "Gordon County",
        "Latitude": 34.50379,
        "Longitude": -84.95111,
        "2017 Income per Capita": 35831.0,
        "2018 Income per Capita": 34849.0,
        "2019 Income per Capita": 35882.0,
        "2020 Income per Capita": 37759.0
    },
    {
        "Agency Name": "Fairmount Police Department",
        "County": "Gordon County",
        "Latitude": 34.509667,
        "Longitude": -84.873862,
        "2017 Income per Capita": 35831.0,
        "2018 Income per Capita": 34849.0,
        "2019 Income per Capita": 35882.0,
        "2020 Income per Capita": 37759.0
    },